name,population_2020,population_2000,area_km2,centroid_lng,centroid_lat
Centro,72000,61000,6.0,-38.542,-3.728
Aldeota,95000,78000,10.0,-38.487,-3.730
Barra do Ceará,108000,85000,15.0,-38.570,-3.705
Messejana,87000,68000,15.0,-38.495,-3.815
Maraponga,64800,52000,8.0,-38.552,-3.787
Parangaba,76000,62000,10.0,-38.550,-3.762
Jóquei Clube,55200,46000,8.0,-38.520,-3.762
Mondubim,102000,81000,12.0,-38.580,-3.815
